{
    "businesses": [
        {
            "name": "New Plymouth Printing and Design",
            "type": "Printing",
            "location": {
                "address1": "123 Main St",
                "city": "New Plymouth",
                "state": "ID",
                "zip_code": "83655"
            },
            "phone": "208-555-1234",
            "website": "https://exampleprintingdesign.com/",
            "logo": "images/directory/Printing.jpg"
        },
        {
            "name": "Pioneer Brewing Company",
            "type": "Food & Drink",
            "location": {
                "address1": "456 Front St",
                "city": "New Plymouth",
                "state": "ID",
                "zip_code": "83655"
            },
            "phone": "208-555-5678",
            "website": "https://pioneerbrewingco.com/",
            "logo": "images/directory/Brewing.png"
        },
        {
            "name": "Fashion Forward Boutique",
            "type": "Clothing & Accessories",
            "location": {
                "address1": "789 Center St",
                "city": "New Plymouth",
                "state": "ID",
                "zip_code": "83655"
            },
            "phone": "208-555-9012",
            "website": "https://fashionforwardboutique.com/",
            "logo": "images/directory/westend.jfif"
        },
        {
            "name": "Green Acres Nursery",
            "type": "Shopping",
            "location": {
                "address1": "1011 Elm St",
                "city": "New Plymouth",
                "state": "ID",
                "zip_code": "83655"
            },
            "phone": "208-555-3456",
            "website": "http://www.greenacresnursery.com/",
            "logo": "images/directory/nursery.jfif"
        },
        {
            "name": "Pizza Paradise",
            "type": "Food & Drink",
            "location": {
                "address1": "1213 Oak St",
                "city": "New Plymouth",
                "state": "ID",
                "zip_code": "83655"
            },
            "phone": "208-555-7890",
            "website": "https://pizzaparadise.com/",
            "logo": "images/directory/pieology.jfif"
        },
        {
            "name": "Downtown Food Carts",
            "type": "Food & Drink",
            "location": {
                "address1": "1415 Maple St",
                "city": "New Plymouth",
                "state": "ID",
                "zip_code": "83655"
            },
            "phone": "208-555-2345",
            "website": "https://downtownfoodcarts.com/",
            "logo": "images/directory/foodcarts.jfif"
        }
    ]
}